ID,Lot,Block,Status,Owner Name,Address,City,State,Zip Code,Latitude,Longitude,Date,Year
1,19.0,18.0,Vacant Only,"HG JETSON URBAN RENE,",589 BROAD ST,Newark,NJ,07102,40.74162384615384,-74.16890080769231,2020-01-23,2020
2,24.0,43.0,Vacant Only,"FOREST HILLS HOLDINGS, LLC",29 BURNET ST,Newark,NJ,07102,40.746275857142855,-74.17367742857142,2020-01-24,2020
3,55.0,45.0,Vacant Only,"CAMPBELL, FREDERICK",24 EAGLES ST,Newark,NJ,07102,40.74601485416667,-74.17252522916667,2020-02-10,2020
4,29.0,64.0,Vacant Only,"WEST, MICHAEL",7 WARREN ST,Newark,NJ,07102,40.73913753846154,-74.17237438461538,2019-03-29,2019
5,19.0,98.0,Vacant Only,MADISON DEVELOPMENT LLC,789 SOUTH ORANGE AVE,Newark,NJ,07106,40.744967450000004,-74.2198612,2019-10-18,2019
6,3.0,118.0,Vacant Only,LIP LIFE REALTY INC C/O BYUNG JUN,1011 BROAD ST,Newark,NJ,07102,40.72833186168404,-74.17640998369053,2017-09-27,2017
7,41.0,121.0,Abandoned,493 WASHINGTON ST LLC,493 WASHINGTON ST,Newark,NJ,07102,40.727985714285715,-74.17992328571428,2016-10-27,2016
8,54.0,123.0,Vacant Only,VULCAN PIONEERS OF N J INC,97-99 CLINTON AVE,Newark,NJ,07114,40.725460444444444,-74.18149488888889,2020-01-30,2020
9,5.14,147.01,Vacant Only,"GARCIA, MARIA L",111 MULBERRY ST,Newark,NJ,07102,40.735314449700695,-74.16909493512728,,
10,1.02,147.01,Vacant Only,"1B MULBERRY LLC,",111 MULBERRY ST,Newark,NJ,07102,40.735314449700695,-74.16909493512728,,
11,8.0,244.0,Vacant Only,"247 S10 LLC,",210-212 BERGEN ST,Newark,NJ,07103,40.73836770967742,-74.19331516129031,2020-01-03,2020
12,15.0,254.0,Vacant Only,FARMLAND DARIES DBA CLINTON MILK,357 MORRIS AVE,Newark,NJ,07103,40.734960750000006,-74.19290125,2020-11-02,2020
13,14.0,254.0,Vacant Only,FARMLAND DARIES DBA CLINTON MILK,355 MORRIS AVE,Newark,NJ,07103,40.735037000000005,-74.19287200000001,2020-11-02,2020
14,11.23,255.0,Vacant Only,"RODRIGUEZ, LUIS & YVETTE",290 BERGEN ST,Newark,NJ,07103,40.7350758,-74.1945874,2020-06-18,2020
15,7.0,258.0,Vacant Only,LITTLETON PARTNERS LLC,138-142 LITTLETON AVE,Newark,NJ,07103,40.74234061904762,-74.19442104761904,2020-09-16,2020
16,39.0,259.0,Vacant Only,ADDA NJ PROPERTIES LLC,117 CAMDEN ST,Newark,NJ,07103,40.741546582089555,-74.19296302985074,2020-01-27,2020
17,16.0,263.0,Vacant Only,TRUS HOLDINGS LLC,190 LITTLETON AVE,Newark,NJ,07103,40.74084206818181,-74.19523675,2020-09-16,2020
18,63.0,263.0,Vacant Only,URBAN LEAGUE OF ESSEX COUNTY,231 FAIRMOUNT AVE,Newark,NJ,07103,40.73978192307692,-74.19491623076922,2020-02-13,2020
19,44.0,263.0,Vacant Only,"FAIRMOUNT CAPITAL HOLDINGS, LLC",193 FAIRMOUNT AVE,Newark,NJ,07107,40.74667951515152,-74.19129000000001,2020-02-13,2020
20,13.0,266.0,Vacant Only,CITY OF NEWARK,379-381 S 10TH ST,Newark,NJ,07103,40.739818,-74.2009885,2021-03-16,2021
21,50.0,271.0,Vacant Only,NJ HOUSING ,145 14TH AVE,Newark,NJ,07103,40.73830955555555,-74.19717181481481,2020-07-08,2020
22,38.0,271.0,Vacant Only,"GROSSO, BRIAN",272 S 6TH ST,Newark,NJ,07103,40.738459923076924,-74.19733623076924,2020-03-12,2020
23,11.0,277.0,Vacant Only,"PERSAUD, DANESH",285 FAIRMOUNT AVE,Newark,NJ,07103,40.737059875,-74.196067875,2020-02-13,2020
24,15.0,279.0,Vacant Only,"LIU, QUAN",303 S 6TH ST,Newark,NJ,07103,40.737275333333336,-74.19800766666667,2019-08-16,2019
25,27.0,280.0,Vacant Only,"BSD ALDINE LLC,",452 15TH AVE,Newark,NJ,07103,40.73706642857143,-74.19951571428571,2020-07-09,2020
26,15.0,282.0,Vacant Only,CITY OF NEWARK,397 S 9TH ST,Newark,NJ,07103,40.73749688888889,-74.20087938888888,2018-12-26,2018
27,14.0,282.0,Vacant Only,"CAPC NJ ASSET STABIL,",395 S 9TH ST,Newark,NJ,07103,40.737573777777776,-74.20084977777778,2018-12-26,2018
28,15.0,282.0,Vacant Only,CITY OF NEWARK,397 S 9TH ST,Newark,NJ,07103,40.73749688888889,-74.20087938888888,2020-03-13,2020
29,1.0,282.0,Vacant Only,"369 S 9 LLC,",369 S 9TH ST,Newark,NJ,07103,40.738573333333335,-74.20046483333334,2019-08-20,2019
30,23.0,285.0,Vacant Only,US BANK TRUST NA (TRUSTEE),427 S 12TH ST,Newark,NJ,07103,40.73920628571429,-74.20314728571428,2019-10-10,2019
31,24.0,289.0,Vacant Only,ADDA NJ PROPERTIES LLC,441 S 9TH ST,Newark,NJ,07103,40.736464277993235,-74.2010472641991,2018-12-26,2018
32,8.0,289.0,Vacant Only,"475 15TH AVENUE LLC,",475 15TH AVE,Newark,NJ,07103,40.737234,-74.201037,2020-07-09,2020
33,24.0,289.0,Vacant Only,ADDA NJ PROPERTIES LLC,441 S 9TH ST,Newark,NJ,07103,40.736464277993235,-74.2010472641991,2020-03-13,2020
34,47.0,290.0,Vacant Only,"DURHAM, SYREETA",426 S 9TH ST,Newark,NJ,07103,40.73671002994693,-74.20095424071164,2019-09-27,2019
35,41.0,291.0,Vacant Only,"KINGS INVESTMENTS LL,",406 S 8TH ST,Newark,NJ,07103,40.73654847540983,-74.20005172131148,2019-08-20,2019
36,47.0,292.0,Vacant Only,"BELLO, MORISELADE",362-364 S 7TH ST,Newark,NJ,07103,40.736536307692305,-74.19906530769231,2021-01-28,2021
37,11.0,294.03,Vacant Only,"SCOTT, MICHAEL A ",349 FAIRMOUNT AVE,Newark,NJ,07103,40.735112666666666,-74.196829,2020-07-01,2020
38,9.0,294.03,Vacant Only,"COCHEGRUS, JELENIA BATIS",353 FAIRMOUNT AVE,Newark,NJ,07103,40.73497975,-74.19688099999999,2020-01-08,2020
39,10.01,299.03,Vacant Only,WILMINGTON SAVINGS FUND SOCIETY,376 LITTLETON AVE,Newark,NJ,07103,40.73401860240964,-74.19807406024097,2020-01-08,2020
40,46.0,301.0,Vacant Only,COLE ROBERT,423 S 6TH ST,Newark,NJ,07103,40.7337861953125,-74.19911613281249,2020-03-12,2020
41,39.05,301.0,Vacant Only,US BANK TRUST NA (TRUSTEE),421 S 6TH ST,Newark,NJ,07103,40.7338208671875,-74.1991024296875,2019-08-16,2019
42,44.02,303.0,Vacant Only,"CAMPBELL, CRISTEEN & STEPHENSON, LE",40-42 HOLLAND ST,Newark,NJ,07103,40.73356580769231,-74.20136653846154,2020-08-18,2020
43,54.0,306.0,Vacant Only,"MOHAMMAD, WALEED ",478-482 SPRINGFIELD AVE,Newark,NJ,07103,40.73212828571429,-74.20157185714285,2019-10-21,2019
44,45.0,307.01,Vacant Only,"BANK OF AMERICA, NATIONAL ASSOC.",540-542 S 10TH ST,Newark,NJ,07103,40.733784,-74.202942,2021-03-16,2021
45,12.0,308.0,Vacant Only,CITY OF NEWARK,509 S 10TH ST,Newark,NJ,07103,40.73496625,-74.2027374375,2021-03-16,2021
46,70.0,308.0,Vacant Only,"16TH AVE NJ LLC,",172 16TH AVE,Newark,NJ,07103,40.7356306,-74.2026974,2020-07-29,2020
47,14.0,316.0,Vacant Only,"VELEZ, EDWIN",635-637 S 12TH ST,Newark,NJ,07103,40.73169446666667,-74.20604306666667,2019-10-10,2019
48,38.0,318.0,Vacant Only,"AYORINDE, AYOKEJI A",420 S 15TH ST,Newark,NJ,07103,40.740395434782606,-74.20539547826087,2019-09-23,2019
49,42.0,318.0,Vacant Only,"ST JOHN 524 LLC,",412 S 15TH ST,Newark,NJ,07103,40.7404894057971,-74.20535924637682,2019-10-15,2019
50,40.0,318.0,Vacant Only,CFRE INVESTMENTS FLIPS I NJ CORP,416 S 15TH ST,Newark,NJ,07103,40.74044242028985,-74.20537736231884,2019-09-23,2019
51,17.0,320.0,Vacant Only,CITY OF NEWARK,425 S 16TH ST,Newark,NJ,07103,40.74142055555556,-74.206199,2019-08-01,2019
52,11.0,320.0,Vacant Only,CITY OF NEWARK,413 S 16TH ST,Newark,NJ,07103,40.74181677777778,-74.206045,2019-09-23,2019
53,14.0,320.0,Vacant Only,US BANK TRUST NA (TRUSTEE),419 S 16TH ST,Newark,NJ,07103,40.74161866666667,-74.206122,2019-09-23,2019
54,51.0,320.0,Vacant Only,APPLE BUYS PROPERTIES LLC,422 S 17TH ST,Newark,NJ,07103,40.74178517241379,-74.20683020689656,2019-08-07,2019
55,65.0,321.0,Vacant Only,"MANLEY, NIARA",408 S 18TH ST,Newark,NJ,07103,40.74254806451613,-74.2074642580645,2019-09-24,2019
56,38.0,321.0,Vacant Only,CITY OF NEWARK,460-462 S 18TH ST,Newark,NJ,07103,40.74084548387097,-74.20814193548387,2019-09-24,2019
57,40.0,321.0,Vacant Only,"AREVALO, VICTOR RAUL CHACON",452 S 18TH ST,Newark,NJ,07103,40.74110741935484,-74.20803767741936,2019-09-24,2019
58,64.0,321.0,Vacant Only,"1 HOUSE NJ LLC,",458 S 18TH ST,Newark,NJ,07103,40.74091096774194,-74.20811587096775,2018-11-02,2018
59,50.0,321.0,Vacant Only,"MPURE ONE LLC,",432 S 18TH ST,Newark,NJ,07103,40.74176225806452,-74.20777703225806,2019-09-24,2019
60,28.0,321.0,Vacant Only,"NEWARK PROPERTY OWNER 2, LLC",447 S 17TH ST,Newark,NJ,07103,40.74103272413793,-74.20734606896552,2019-08-07,2019
61,62.0,321.0,Vacant Only,CLOUD PROPERTIES 1 LLC,459 S 17TH ST,Newark,NJ,07103,40.740633,-74.2075,2019-09-10,2019
62,12.0,322.0,Vacant Only,"FOLGER, SIMCHA",415 S 18TH ST,Newark,NJ,07103,40.74239961290323,-74.2077504516129,2019-09-24,2019
63,35.0,324.0,Vacant Only,BLKHRT REAL ESTATE LLC,498 S 20TH ST,Newark,NJ,07103,40.73971121818182,-74.21054476363636,2019-09-25,2019
64,19.01,324.0,Vacant Only,"AKINGBADE, OLUWASEYI TUNJI",493 S 19TH ST,Newark,NJ,07103,40.73993338095238,-74.20970966666667,2019-08-14,2019
65,36.0,324.0,Vacant Only,"WILLIAMS, LOUISE",494-496 S 20TH ST,Newark,NJ,07103,40.739761290909094,-74.21052501818183,2019-08-13,2019
66,38.0,324.0,Vacant Only,"HS ESTATES, LLC.",492 S 20TH ST,Newark,NJ,07103,40.73978632727273,-74.21051514545455,2019-08-13,2019
67,12.0,324.0,Vacant Only,"SKILLMATIC INVESTMENTS, LLC.",479 S 19TH ST,Newark,NJ,07103,40.74039571428571,-74.20953,2019-08-15,2019
68,31.0,325.0,Vacant Only,"SPENCER, JUNE (ADMINISTRATRIX)",504 S 19TH ST,Newark,NJ,07103,40.73955614285715,-74.20962999999999,2019-08-14,2019
69,57.0,326.0,Vacant Only,"CMRB PROPERTIES LLC,",491 S 17TH ST,Newark,NJ,07103,40.73941314285714,-74.20797057142858,2019-08-07,2019
70,35.0,326.0,Vacant Only,"TMG FNSE LLC,",490 S 18TH ST,Newark,NJ,07103,40.739796500000004,-74.20855937500001,2019-09-24,2019
71,31.0,326.0,Vacant Only,"505 SOUTH 18TH STREET, LLC",498 S 18TH ST,Newark,NJ,07103,40.7395665,-74.208650875,2019-09-24,2019
72,55.0,326.0,Vacant Only,"FDF 2 LLC,",487 S 17TH ST,Newark,NJ,07103,40.73954419047619,-74.2079200952381,2019-09-23,2019
73,33.0,326.0,Vacant Only,CITY OF NEWARK,494 S 18TH ST,Newark,NJ,07103,40.7396815,-74.208605125,2019-08-09,2019
74,12.0,327.0,Vacant Only,"NEWARK PROPERTY OWNER 2, LLC",473 S 16TH ST,Newark,NJ,07103,40.739671095238094,-74.20687828571428,2019-08-06,2019
75,22.0,327.0,Vacant Only,"FOMEKONG, DIANE EUPHRAS DIFFO",491 S 16TH ST,Newark,NJ,07103,40.73908395238095,-74.20710585714285,2019-08-06,2019
76,28.0,328.0,Vacant Only,"MAFA HOLDINGS LLC,",584 15TH AVE,Newark,NJ,07103,40.73871545454545,-74.20690936363637,2020-07-09,2020
77,34.0,328.0,Vacant Only,GURUDEV HOMES LLC,482 S 16TH ST,Newark,NJ,07103,40.739324,-74.2067866,2019-08-06,2019
78,35.0,328.0,Vacant Only,GURUDEV HOMES LLC,480 S 16TH ST,Newark,NJ,07103,40.7393925,-74.20676005,2019-08-06,2019
79,22.0,328.0,Vacant Only,"BROTHER REALTY, LLC.",473 S 15TH ST,Newark,NJ,07103,40.738889,-74.20620361904763,2019-07-31,2019
80,27.0,328.0,Vacant Only,"RISING PLAINS, LLC,",582 15TH AVE,Newark,NJ,07103,40.73870390909091,-74.20685572727272,2020-07-09,2020
81,31.0,329.0,Vacant Only,"ANI 472 NJ LLC,",472 S 15TH ST,Newark,NJ,07103,40.739193896551726,-74.20585975862069,2019-07-31,2019
82,39.0,329.0,Vacant Only,"456 S 15 92 LLC,",456 S 15TH ST,Newark,NJ,07103,40.73957044827586,-74.20571437931034,2019-07-31,2019
84,41.0,330.0,Vacant Only,"GEORGE, JERMAINE J",460 S 14TH ST,Newark,NJ,07103,40.739288333333334,-74.20481266666667,2019-07-30,2019
85,29.02,331.0,Vacant Only,"BROWNSTONE CAPITAL, LLC.",225 16TH AVE,Newark,NJ,07103,40.73646171428571,-74.20568342857143,2020-07-09,2020
86,55.0,333.0,Vacant Only,"SOUTH 16 PLUS LLC,",512 S 16TH ST,Newark,NJ,07103,40.73834469387755,-74.20716371428571,2019-08-06,2019
87,57.0,333.0,Vacant Only,"514-516 LLC,",514-516 S 16TH ST,Newark,NJ,07103,40.73831214285714,-74.20717599999999,2019-10-15,2019
88,23.0,334.0,Vacant Only,CITY OF NEWARK,513 S 16TH ST,Newark,NJ,07103,40.73838969387755,-74.20737171428571,2019-08-02,2019
89,17.0,334.0,Vacant Only,US BANK TRUST NA (TRUSTEE),525 S 16TH ST,Newark,NJ,07103,40.7381943877551,-74.20744542857142,2019-08-02,2019
90,25.0,334.0,Vacant Only,"509 SOUTH 16TH LLC,",509 S 16TH ST,Newark,NJ,07103,40.738454795918365,-74.20734714285713,2019-08-06,2019
91,31.0,334.0,Vacant Only,"ZENAIDA, LONDONO",599 15TH AVE,Newark,NJ,07103,40.738727857142855,-74.207765,2020-07-09,2020
92,24.0,334.0,Vacant Only,ESSEX FLIPS 23 LLC,511 S 16TH ST,Newark,NJ,07103,40.73842224489796,-74.20735942857142,2019-07-19,2019
93,36.0,335.0,Vacant Only,"780 GROVE LLC,",544 S 18TH ST,Newark,NJ,07103,40.737790714285715,-74.209335,2019-09-24,2019
95,31.0,336.0,Vacant Only,CITY OF NEWARK,305 16TH AVE,Newark,NJ,07103,40.737454285714286,-74.21020999999999,2020-07-09,2020
96,40.0,337.0,Vacant Only,HOUSING AND URBAN DEVELOPMENT,540 S 20TH ST,Newark,NJ,07103,40.738398833333335,-74.21105475,2019-08-13,2019
97,31.0,337.0,Vacant Only,"MOUNTAIN OF FIRE AND,",321-325 16TH AVE,Newark,NJ,07103,40.737651428571425,-74.21110900000001,2020-07-09,2020
100,7.0,339.0,Vacant Only,BRITT JAMES R. & EVELYN,312-314 16TH AVE,Newark,NJ,07103,40.737402,-74.210754,2020-07-09,2020
101,27.0,340.0,Vacant Only,"NEWARK PROPERTY OWNER 2, LLC",603 S 18TH ST,Newark,NJ,07103,40.73569392307692,-74.21036146153847,2019-08-09,2019
102,16.0,340.0,Vacant Only,"AIME, CARLHENS ",581 S 18TH ST,Newark,NJ,07103,40.73642246153846,-74.21008223076923,2019-08-09,2019
103,7.0,340.0,Vacant Only,CITY OF NEWARK,296-298 16TH AVE,Newark,NJ,07103,40.737241600000004,-74.21002060000001,2020-07-09,2020
105,18.0,341.0,Vacant Only,"ROD PROEPRTIES LLC,",581 S 17TH ST,Newark,NJ,07103,40.73599862068966,-74.20926231034483,2019-08-07,2019
106,2.0,341.0,Vacant Only,"560 SOUTH 18TH LLC,",560 S 18TH ST,Newark,NJ,07103,40.73703976923077,-74.20962038461538,2019-08-09,2019
107,28.0,341.0,Vacant Only,"SCOTT, QYUMAR",601 S 17TH ST,Newark,NJ,07103,40.735402758620694,-74.20949437931034,2019-08-07,2019
108,46.02,341.0,Vacant Only,"US BANK TRUST NA, TTEE LSF9  MASTER",580 S 18TH ST,Newark,NJ,07103,40.73637746153846,-74.20987423076923,2019-08-09,2019
110,21.0,352.0,Vacant Only,"647 S 19 LLC,",647 S 19TH ST,Newark,NJ,07103,40.734341879999995,-74.21187796,2019-08-14,2019
111,16.0,352.0,Vacant Only,CITY OF NEWARK,637 S 19TH ST,Newark,NJ,07103,40.73467348,-74.21175016,2019-08-14,2019
112,26.0,356.0,Vacant Only,"GOLDBERGER, SAMUEL",707 S 18TH ST,Newark,NJ,07103,40.731904,-74.211816,2019-08-12,2019
113,36.0,356.0,Vacant Only,CLOUD PROPERTIES 1 LLC,512 S 17TH ST,Newark,NJ,07103,40.73853529787234,-74.2080785531915,2018-11-01,2018
115,41.0,357.0,Vacant Only,CITY OF NEWARK,678 S 18TH ST,Newark,NJ,07103,40.73268288235294,-74.21129035294118,2019-08-09,2019
116,35.0,357.0,Vacant Only,"SOUTH 18 ST LLC,",690 S 18TH ST,Newark,NJ,07103,40.732187352941175,-74.21148094117648,2019-08-09,2019
117,20.0,359.0,Vacant Only,"NASEEM, ZAKIR H.",669 S 15TH ST,Newark,NJ,07103,40.731745714285715,-74.20894085714286,2019-07-31,2019
118,19.0,359.0,Vacant Only,"NOLASCO, ELIZABETH",667 S 15TH ST,Newark,NJ,07103,40.731774428571434,-74.20892971428572,2019-07-31,2019
119,36.0,365.0,Vacant Only,"CHARLES REALTY 1, LLC",724 S 18TH ST,Newark,NJ,07103,40.73093138461538,-74.21196492307692,2019-08-12,2019
120,23.0,366.0,Vacant Only,143 N FULLERTON AVE LLC,745 S 18TH ST,Newark,NJ,07103,40.73044627272728,-74.21237663636363,2019-08-12,2019
121,14.0,367.0,Vacant Only,"729 S 19TH LLC,",729 S 19TH ST,Newark,NJ,07103,40.73147963636364,-74.21296804545455,2019-08-14,2019
122,16.0,367.0,Vacant Only,"733 S 19TH LLC,",733 S 19TH ST,Newark,NJ,07103,40.731394,-74.2130005,2019-08-14,2019
123,4.0,367.0,Vacant Only,"NOFAL, SOHAIL",718 S 20TH ST,Newark,NJ,07103,40.731799679763206,-74.21359535433736,2020-02-05,2020
124,12.0,368.0,Vacant Only,CITY OF NEWARK,763 S 20TH ST,Newark,NJ,07103,40.73023192657652,-74.21440806695902,2019-08-15,2019
125,16.0,368.0,Vacant Only,"173 FREEMAN AVE LLC,",755 S 20TH,Newark,NJ,07103,40.730475889864785,-74.21431660043854,2019-08-13,2019
126,18.0,368.0,Vacant Only,"OROZCO, RONALD",751 S 20TH ST,Newark,NJ,07103,40.73059787150891,-74.2142708671783,2019-10-15,2019
127,34.08,406.0,Vacant Only,NALIALI A. VALENTINE,250 WARREN ST,Newark,NJ,07103,40.74282371428571,-74.18415442857142,2020-07-07,2020
128,21.02,415.0,Vacant Only,"JAHOVIC, MEDINA",318 NEW ST,Newark,NJ,07103,40.74466152631579,-74.18468784210526,2021-02-23,2021
129,23.0,441.0,Vacant Only,"PARAMOUNT HOLDING CO,",207 BROAD ST,Newark,NJ,07104,40.755032285714286,-74.16921842857143,2020-01-23,2020
130,28.0,450.0,Vacant Only,"TRADE WINDS REAL ESTATE, LLC.",360 BROAD ST,Newark,NJ,07104,40.7492495,-74.17011600000001,2020-01-23,2020
131,41.0,450.0,Vacant Only,CITY OF NEWARK,21 8TH AVE,Newark,NJ,07104,40.748681272569115,-74.16905316656408,2020-07-15,2020
132,90.0,491.0,Vacant Only,"ROSALES, KEVIN A",141- CLIFTON AVE,Newark,NJ,07104,40.7544914516129,-74.1779643548387,2020-01-29,2020
133,32.0,491.0,Vacant Only,"143 SEYMORE G, LLC,",76 MT PROSPECT AVE,Newark,NJ,07104,40.75485204347826,-74.17697726086956,2020-11-16,2020
135,34.0,483.0,Vacant Only,WEBSTER BRITIBELLA HOLDINGS LLC,29 WEBSTER ST,Newark,NJ,07104,40.753241466666665,-74.17167493333334,2019-11-14,2019
136,49.0,484.0,Vacant Only,"83 SUMMER AVENUE LLC,",83 SUMMER AVE,Newark,NJ,07104,40.75337777777778,-74.17337011111111,2019-10-23,2019
137,20.0,486.0,Vacant Only,"ALEXANDER, ELSIE",119 SUMMER AVE,Newark,NJ,07104,40.75482777777778,-74.17323911111112,2019-10-29,2019
138,29.0,486.0,Vacant Only,ANDRE D TUCKER,109 SUMMER AVE,Newark,NJ,07104,40.754425,-74.1732755,2019-10-22,2019
139,59.0,488.0,Vacant Only,CITY OF NEWARK,73- CUTLER ST,Newark,NJ,07104,40.753456375,-74.175456125,2020-02-04,2020
140,21.0,490.0,Vacant Only,"WIGGINS GARSIDE LLC,",94 GARSIDE ST,Newark,NJ,07104,40.754621156249996,-74.17609909375,2020-02-19,2020
141,23.0,490.0,Vacant Only,CITY OF NEWARK,90 GARSIDE ST,Newark,NJ,07104,40.75448984375,-74.17616790625,2020-02-19,2020
142,11.0,490.0,Vacant Only,"WHL IV LLC,",114 GARSIDE ST,Newark,NJ,07104,40.75527771875,-74.17575503125,2020-10-06,2020
143,29.0,506.0,Vacant Only,CITY OF NEWARK,16 HIGHLAND AVE,Newark,NJ,07104,40.75756474683544,-74.17969640506328,2020-08-12,2020
144,12.0,507.0,Vacant Only,"SUMMIT PROPERTIES,",164 PARKER ST,Newark,NJ,07104,40.758865,-74.17796899999999,2021-03-03,2021
145,54.0,507.0,Vacant Only,CITY OF NEWARK,35-37 HIGHLAND AVE,Newark,NJ,07104,40.75807767088608,-74.17919312658228,2020-08-12,2020
146,7.0,507.0,Vacant Only,"JJ BROTHERS INVESTOR,LLC",172 PARKER ST,Newark,NJ,07104,40.759112124999994,-74.17784075,2021-03-03,2021
147,45.0,508.0,Vacant Only,PARKER 141 REALTY LLC,141 PARKER ST,Newark,NJ,07104,40.757745892857145,-74.17831764285714,2021-02-26,2021
148,31.0,508.0,Vacant Only,"US BANK TRUST, N.A.,",111 PARK AVE,Newark,NJ,07104,40.756601,-74.17818,2021-02-26,2021
149,10.0,508.0,Vacant Only,CITY OF NEWARK,152-154 RIDGE ST,Newark,NJ,07104,40.75797991836735,-74.17738840816327,,
150,47.0,509.0,Vacant Only,"OLIVIERI, JEAN-PAUL",141 RIDGE ST,Newark,NJ,07104,40.75781658490566,-74.17724171698113,2019-10-08,2019
151,25.0,510.0,Vacant Only,148 MOUNT PROSPECT LLC,148 MT PROSPECT AVE,Newark,NJ,07104,40.757142183673466,-74.17580312244898,2020-11-10,2020
152,37.0,511.0,Vacant Only,"ALVARADO, CHARLIE",151 MT PROSPECT AVE,Newark,NJ,07104,40.75660513333333,-74.17584433333333,2020-11-10,2020
153,49.0,512.0,Vacant Only,"ORTIZ, ANGEL P",165 GARSIDE ST,Newark,NJ,07104,40.7570334,-74.17462280000001,2020-02-05,2020
154,48.0,522.0,Vacant Only,"PAYAMI, HOUMAN",122 BROAD ST,Newark,NJ,07104,40.75820679310345,-74.16832189655172,2020-01-23,2020
155,51.0,524.0,Vacant Only,"NEUMAN, MORDECHAI",101 4TH AVE,Newark,NJ,07104,40.757290447691005,-74.17204890334386,2020-07-15,2020
156,26.0,526.0,Vacant Only,"CHEN, FU MEI ",242-244 BROADWAY,Newark,NJ,07104,40.75886460085553,-74.16952201773533,2020-01-07,2020
157,12.0,526.0,Vacant Only,"DOMUS CORPORATION,",104 3RD AVE,Newark,NJ,07104,40.75950322222222,-74.17118205555555,2020-07-13,2020
158,11.0,526.0,Vacant Only,"DOMUS CORPORATION,",106 3RD AVE,Newark,NJ,07104,40.759513148148145,-74.17121437037036,2020-07-13,2020
159,50.0,526.0,Vacant Only,"DOMUS CORPORATION,",102 3RD AVE,Newark,NJ,07104,40.75949329629629,-74.17114974074074,2020-07-13,2020
160,28.0,527.0,Vacant Only,"SCHARFBED LLC,",212 SUMMER AVE,Newark,NJ,07104,40.75896109090909,-74.17186818181817,2019-10-22,2019
161,25.0,527.0,Vacant Only,"PENA,  ILUMINADA ",218 SUMMER AVE,Newark,NJ,07104,40.75914436363636,-74.17177272727272,2019-10-22,2019
162,15.0,529.0,Vacant Only,CITY OF NEWARK,66 KEARNEY ST,Newark,NJ,07104,40.75814752173913,-74.17278608695652,2020-09-03,2020
163,68.0,531.0,Vacant Only,EAGLE ,255-257 MT PROSPECT AVE,Newark,NJ,07104,40.7601755862069,-74.17378113793103,2020-11-17,2020
164,46.0,532.0,Vacant Only,"299 CLIFTON MILL, LLC.",299 CLIFTON AVE,Newark,NJ,07104,40.76029621052631,-74.17492984210527,2020-01-29,2020
165,18.0,537.0,Vacant Only,"CONDEMAITA,MARCO R CHAGMANA, DELIA",198 RIDGE ST,Newark,NJ,07104,40.75953922448979,-74.17656087755101,2019-10-08,2019
166,34.0,537.0,Vacant Only,"NJ REHAB III, LLC",189 PARKER ST,Newark,NJ,07104,40.75944046428571,-74.17743821428571,2021-03-03,2021
167,72.0,538.0,Vacant Only,"SOTO, WILLIAM & RAFAEL RODRIGUEZ",224- PARKER ST,Newark,NJ,07104,40.760718437499996,-74.17700712499999,2021-03-05,2021
168,50.0,538.0,Vacant Only,"101 HIGHLAND C LLC,",101 HIGHLAND AVE,Newark,NJ,07104,40.75997162025317,-74.17819560759493,2020-08-12,2020
169,72.0,559.0,Vacant Only,"MEIDANI, IMBAR",264- GARSIDE ST,Newark,NJ,07104,40.760400493333336,-74.17251065333333,2020-02-19,2020
170,71.0,560.0,Vacant Only,STANGROOM GEORGE & JUANITA,288- SUMMER AVE,Newark,NJ,07104,40.761652454545455,-74.17046618181818,2019-10-22,2019
173,23.0,582.0,Vacant Only,"U.S. BANK TRUST, N.A.",314-316 PARKER ST,Newark,NJ,07104,40.76412722192704,-74.17522902521392,2021-03-02,2021
174,21.0,597.0,Vacant Only,CITY OF NEWARK,590 5TH ST,Newark,NJ,07107,40.7802422,-74.1747887,2020-07-16,2020
175,41.0,607.0,Vacant Only,"PICHARDO, LEANDRO A ",369-371 PARKER ST,Newark,NJ,07104,40.76620943767187,-74.1739208039705,2021-03-02,2021
176,9.0,611.0,Vacant Only,"RAMOS, RAYMOND ",388 SUMMER AVE,Newark,NJ,07104,40.76498846223796,-74.16870095281784,2019-10-23,2019
177,13.0,612.0,Vacant Only,"90 WAKEMAN AVE LLC,",90 WAKEMAN AVE,Newark,NJ,07104,40.7648295,-74.1676215,2020-01-13,2020
178,33.0,613.0,Vacant Only,PJS PROPERTY SOLUTIONS LLC,69 WAKEMAN AVE,Newark,NJ,07104,40.76417777777778,-74.16772788888889,2020-01-10,2020
179,47.0,629.0,Vacant Only,"LATIF, ASHRAF",529-531 CLIFTON AVE,Newark,NJ,07104,40.7683496,-74.17074855,2020-01-29,2020
180,39.0,629.0,Vacant Only,"BAUTISTA, OKERIS S ",515-519 CLIFTON AVE,Newark,NJ,07104,40.7678988,-74.1709834,2020-01-29,2020
181,32.0,632.0,Vacant Only,MTG REAL ESTATE GROUP LLC,438-440 PARKER ST,Newark,NJ,07104,40.7683024,-74.17307385,2021-03-02,2021
182,34.0,632.0,Vacant Only,"PARRIS, RASSAAN",434-436 PARKER ST,Newark,NJ,07104,40.7681732,-74.17314055,2021-03-02,2021
183,36.0,639.0,Vacant Only,"TNF REAL ESTATE, LLC,",653 5TH ST,Newark,NJ,07107,40.7802422,-74.1747887,2020-07-16,2020
184,20.0,658.0,Vacant Only,"502 N 9 HOLDINGS LLC,",502 N 9TH ST,Newark,NJ,07107,40.77253975,-74.183318625,2021-02-22,2021
186,5.18,680.0,Vacant Only,"DURETTE, CARLOTTA",18 CARMELLA CT,Newark,NJ,07104,40.77002866666667,-74.16431183333334,2020-07-21,2020
187,50.0,695.0,Vacant Only,"ANELLO, CHRISTINA",704-706 N 6TH ST,Newark,NJ,07107,40.77352675,-74.17941325,2021-02-17,2021
188,42.0,695.0,Vacant Only,"NATIONSTAR MORTGAGE, LLC.",720-722 N 6TH ST,Newark,NJ,07107,40.77403846428572,-74.17914496428571,2021-02-16,2021
189,34.0,700.0,Vacant Only,"SILVESTRE, MICHAEL",117 DAVENPORT AVE,Newark,NJ,07107,40.7745,-74.18460333333333,2020-02-04,2020
190,6.0,717.0,Vacant Only,V ,198 WOODSIDE AVE,Newark,NJ,07104,40.7732301,-74.1657844,2020-01-17,2020
191,55.0,718.0,Vacant Only,"LIFETIME CONNECTION,LLC",185 WOODSIDE AVE,Newark,NJ,07104,40.77295985714286,-74.16569742857143,2019-10-23,2019
192,67.0,721.0,Vacant Only,"DELAVAN TOWER, LLC.",93 DELAVAN AVE,Newark,NJ,07104,40.76989781818182,-74.16163981818183,2020-02-07,2020
193,68.0,721.0,Vacant Only,JOLLY JOHN E,95 DELAVAN AVE,Newark,NJ,07104,40.76990354545455,-74.16165954545454,2020-02-07,2020
194,58.0,721.01,Vacant Only,"SUMMIT PROPERTIES LL,",25-27 ROMAINE PL,Newark,NJ,07104,40.770625202894344,-74.16203993306,2021-03-11,2021
195,22.0,732.0,Vacant Only,"CASTAING, VICTORIA ",44 BRYANT ST,Newark,NJ,07104,40.774546625,-74.1625075,2020-01-24,2020
196,14.0,748.01,Vacant Only,ROSEHELLER SQUARE LLC,21-23 ROSE AVE,Newark,NJ,07107,40.77814042857143,-74.17661485714285,2021-03-11,2021
197,2.01,750.02,Vacant Only,"DUARTE, JOSE OSCAR VAZ",902 N 5TH ST,Newark,NJ,07107,40.77962179661017,-74.17530857627118,2020-11-19,2020
199,15.0,763.0,Vacant Only,CITY OF NEWARK,710 SUMMER AVE,Newark,NJ,07104,40.776203699999996,-74.1629846,2019-10-23,2019
200,13.0,763.0,Vacant Only,"712 SUMMER AVENUE, LLC",712-714 SUMMER AVE,Newark,NJ,07104,40.776258399999996,-74.1629552,2020-06-25,2020
202,43.0,764.0,Vacant Only,US BANK TRUST NA (TRUSTEE),33-35 BRYANT ST,Newark,NJ,07104,40.77441555033557,-74.16188008053692,2020-01-24,2020
203,10.0,767.0,Vacant Only,"ELLIOT ESTATES I, LLC",26-28 ELLIOTT ST,Newark,NJ,07104,40.7746375,-74.16088625,2020-02-10,2020
204,1.0,767.0,Vacant Only,"25 BRYANT STREET NEW,",25-29 BRYANT ST,Newark,NJ,07104,40.77439391275168,-74.16183906040268,2020-01-24,2020
205,5.0,775.0,Vacant Only,"JERSEY MOUNTAINS 360,LLC",737 SUMMER AVE,Newark,NJ,07104,40.777136999999996,-74.162261,2020-01-21,2020
206,42.0,778.0,Vacant Only,"SAGEWOOD SFF III LLC,",346-348 WOODSIDE AVE,Newark,NJ,07104,40.77808025,-74.16321546875,2020-01-17,2020
208,57.0,786.0,Vacant Only,GARCIA SANTOS ,47-49 MANCHESTER PL,Newark,NJ,07104,40.781198357142856,-74.17119224999999,2020-07-02,2020
209,2.0,811.0,Vacant Only,"266 VERONA REALTY, LLC.",266 VERONA AVE,Newark,NJ,07104,40.782562,-74.16525322222222,2019-11-13,2019
210,12.0,813.0,Vacant Only,"871 CLIFTON A LLC,",871 CLIFTON AVE,Newark,NJ,07104,40.780597,-74.16436350000001,2020-01-29,2020
211,41.0,818.0,Vacant Only,"PEREIRA, CARLA",61-63 WINTHROP ST,Newark,NJ,07104,40.77985612121212,-74.15902166666666,2020-01-17,2020
212,30.0,818.0,Vacant Only,"THE BOA GROUP LLC,",397 LINCOLN AVE,Newark,NJ,07104,40.779649553571424,-74.15829646428571,2020-09-15,2020
213,6.0,832.0,Vacant Only,"21ST ASSOCIATES, LLC",65-67 VERONA AVE,Newark,NJ,07104,40.77933234,-74.15617062,2019-11-13,2019
214,10.0,839.0,Vacant Only,"LATORRE, LUIS",136 SYLVAN AVE,Newark,NJ,07104,40.78181007954546,-74.1585109659091,2019-10-25,2019
215,30.0,867.0,Vacant Only,"SITE 15 REDEVELOPER COMPANY, LLC",34 COLUMBIA ST,Newark,NJ,07102,40.73148776923077,-74.16939523076923,2020-02-07,2020
216,54.0,872.0,Vacant Only,"CHOI, JENNIFER M",220 MULBERRY ST,Newark,NJ,07102,40.73125176923077,-74.17104492307692,2020-11-17,2020
217,39.0,883.0,Abandoned,1028 BROAD LLC,1028 BROAD ST,Newark,NJ,07102,40.72797861006361,-74.17637389924332,2015-12-22,2015
218,34.0,885.0,Vacant Only,"36 CHESTNUT HOLDINGS,LLC",36 CHESTNUT ST,Newark,NJ,07102,40.72707702857143,-74.17487334285715,2020-01-30,2020
220,33.0,926.0,Vacant Only,119 TICHENOR LLC,119 TICHENOR ST,Newark,NJ,07105,40.723046700195894,-74.17263569369848,2019-10-28,2019
221,35.0,940.0,Vacant Only,"REYNA, RODOLFO A",181 WALNUT ST,Newark,NJ,07105,40.72809257142857,-74.16651742857142,2019-11-06,2019
223,45.0,959.0,Vacant Only,CITY OF NEWARK,103 NICHOLS ST,Newark,NJ,07105,40.725186,-74.164372,2021-02-25,2021
224,17.0,982.0,Vacant Only,"NEVES CONTRACTORS, LLC",274 NEW YORK AVE,Newark,NJ,07105,40.724601,-74.157829,2021-02-23,2021
225,11.1,1183.01,Vacant Only,"JERONIMO,RICARDO L BIGALIA,TAOANE",27-29 SUMO VILLAGE CT,Newark,NJ,07114,40.72128516239764,-74.17508683500043,2016-10-19,2016
226,33.0,1185.01,Vacant Only,BALAN INVESTMENTS LLC,8-10 GOBLE ST,Newark,NJ,07114,40.721526857142855,-74.17338728571428,2020-02-20,2020
227,60.0,1778.0,Vacant Only,CONYERS NETTIE M,188 S 6TH ST,Newark,NJ,07103,40.74120026470588,-74.1961174117647,2019-08-16,2019
228,62.0,1778.0,Vacant Only,"CMRB PROPERTIES LLC,",184- S 6TH ST,Newark,NJ,07103,40.74131855882353,-74.19605764705882,2019-08-16,2019
229,58.0,1778.0,Vacant Only,DANIELS JEWEL & GRANGER DEBORAH,190-192 S 6TH ST,Newark,NJ,07103,40.74114111764706,-74.19614729411764,2019-08-16,2019
230,46.0,1778.0,Vacant Only,"DAMIAN-AREVALO, MARCO R",214-216 S 6TH ST,Newark,NJ,07103,40.74043135294118,-74.19650588235294,2020-03-11,2020
231,61.0,1779.0,Vacant Only,GORDON EDWARD E. & VELMA,228 S 7TH ST,Newark,NJ,07103,40.74094083333333,-74.19727605555556,2019-08-19,2019
232,64.0,1779.0,Vacant Only,"WATERS, JOSEPH L.",220-222 S 7TH ST,Newark,NJ,07103,40.741175166666665,-74.19716061111112,2019-10-15,2019
233,5.0,1780.0,Vacant Only,"8380108, LLC,",350 13TH AVE,Newark,NJ,07103,40.741941857142855,-74.197346,2020-07-08,2020
234,7.0,1780.0,Vacant Only,"GUAMAN-LEMA,JOSE RUBEN ",344-346 13TH AVE,Newark,NJ,07103,40.741872,-74.197106,2020-07-08,2020
235,21.0,1780.0,Vacant Only,"HICKMAN, LEON & ANNEBELL",237-239 S 7TH ST,Newark,NJ,07103,40.74073337142857,-74.19760834285715,2019-08-19,2019
236,30.0,1780.0,Vacant Only,"VILLALBA, ARGITA",255 S 7TH ST,Newark,NJ,07103,40.74019105714286,-74.19787551428571,2019-08-19,2019
237,4.0,1781.0,Vacant Only,OSCAR CONSTRUCTION SERVICES LLC,370-374 13TH AVE,Newark,NJ,07103,40.742543299999994,-74.1988074,2020-07-08,2020
238,3.0,1781.0,Vacant Only,NEWARK DEVELOPERS LLC,270 S 9TH ST,Newark,NJ,07103,40.74114176470588,-74.19917122058824,2019-08-21,2019
239,13.0,1782.0,Vacant Only,"ANYAM, PATRICK ",283 S 9TH ST,Newark,NJ,07103,40.74181123529412,-74.19907552941177,2019-08-21,2019
240,28.0,1782.0,Vacant Only,"NATIONSTAR MORTGAGE,LLC",313-315 S 9TH ST,Newark,NJ,07103,40.74084417647059,-74.19954714705882,2019-09-27,2019
241,1.0,1783.0,Vacant Only,"406 BH 26, LLC,",406 13TH AVE,Newark,NJ,07103,40.742804,-74.200305,2020-07-08,2020
242,24.0,1784.0,Vacant Only,CITY OF NEWARK,369 S 11TH ST,Newark,NJ,07103,40.74124920943465,-74.2013613842317,2021-03-17,2021
243,69.0,1784.0,Vacant Only,CITY OF NEWARK,356 S 12TH ST,Newark,NJ,07103,40.74181270687742,-74.20187650610124,2019-09-13,2019
244,51.0,1784.0,Vacant Only,"CCH 360-362 S 12,LLC,",360-362 S 12TH ST,Newark,NJ,07103,40.741721722201675,-74.20192158062727,2019-09-13,2019
245,10.0,1784.0,Vacant Only,CITY OF NEWARK,339-341 S 11TH ST,Newark,NJ,07103,40.74244080235866,-74.20077234605793,2021-03-18,2021
247,20.0,1794.0,Vacant Only,"327 S19TH LLC,",327 S 19TH ST,Newark,NJ,07103,40.74580138709677,-74.20715470967741,2019-08-15,2019
248,34.0,1794.0,Vacant Only,"MAJORS, ROBERTA",346 S 20TH ST,Newark,NJ,07103,40.745463,-74.20806838461539,2019-08-13,2019
249,57.0,1794.0,Vacant Only,CITY OF NEWARK,296 S 20TH ST,Newark,NJ,07103,40.746911250000004,-74.2073556,2019-08-13,2019
250,25.0,1794.0,Vacant Only,"DANIELS, JOSEPH L JR",337 S 19TH ST,Newark,NJ,07103,40.74550122580645,-74.20730358064516,2019-08-15,2019
251,21.0,1794.0,Vacant Only,"REYES, ELIEZER",329 S 19TH ST,Newark,NJ,07103,40.74574135483871,-74.20718448387096,2019-08-15,2019
252,9.0,1794.0,Vacant Only,305 SOUTH NINETEENTH STREET LLC,305 S 19TH ST,Newark,NJ,07103,40.746461741935484,-74.20682719354838,2019-09-13,2019
253,65.0,1794.0,Vacant Only,"NJ BOWLING, LLC,",290- S 20TH ST,Newark,NJ,07103,40.747089,-74.207268,2019-12-10,2019
254,8.0,1795.0,Vacant Only,CITY OF NEWARK,275 S 11TH ST,Newark,NJ,07103,40.7447311774301,-74.19963980248397,2021-03-18,2021
255,51.03,1797.0,Vacant Only,CITY OF NEWARK,260 S 10TH ST,Newark,NJ,07103,40.74384649913144,-74.19884264640959,2021-03-15,2021
256,47.0,1799.0,Vacant Only,"SHAW, HASSANA Q",208-210 S 8TH ST,Newark,NJ,07103,40.743097750000004,-74.19720128571429,2019-08-20,2019
257,21.0,1799.0,Vacant Only,"179 S7 ST LLC,",179 S 7TH ST,Newark,NJ,07103,40.74276823076923,-74.19660576923077,2019-08-19,2019
317,46.0,1884.0,Vacant Only,CITY OF NEWARK,93 3RD ST,Newark,NJ,07107,40.75034275,-74.1886418125,2020-07-13,2020
258,59.02,1799.0,Vacant Only,HOUSING AND URBAN DEVELOPMENT,184 S 8TH ST,Newark,NJ,07103,40.74388675,-74.19681385714286,2019-08-20,2019
259,45.0,1799.0,Vacant Only,"GUTTMAN, YISOSCHER",212-214 S 8TH ST,Newark,NJ,07103,40.74296625,-74.19726585714285,2019-08-20,2019
260,28.0,1800.0,Vacant Only,"MC ACQUISITIONS LLC,",163 S 6TH ST,Newark,NJ,07103,40.742242,-74.19582342857143,2019-08-16,2019
261,23.0,1800.0,Vacant Only,"MIRZA, KAMRAN",153-155 S 6TH ST,Newark,NJ,07103,40.742526999999995,-74.19567932142857,2019-10-16,2019
262,15.0,1800.0,Vacant Only,"SHAO, JIA ",137 S 6TH ST,Newark,NJ,07103,40.742982999999995,-74.19544875,2019-08-16,2019
263,13.01,1809.0,Vacant Only,"EF EQUITIES II LLC,",82-84 S 6TH ST,Newark,NJ,07107,40.74503563636364,-74.19414981818183,2019-08-16,2019
264,53.0,1810.0,Vacant Only,106 S 7TH LLC.,108 S 7TH ST,Newark,NJ,07107,40.74475168506226,-74.19539335158497,2019-08-19,2019
265,8.0,1810.0,Vacant Only,"LIPSCHUTZ, NAFTALI",75 S 6TH ST,Newark,NJ,07107,40.74511664285714,-74.19434023809524,2019-08-16,2019
266,23.0,1810.0,Vacant Only,"COSTA, CELSO",105 S 6TH ST,Newark,NJ,07107,40.74431647058824,-74.19476276470589,2019-08-16,2019
267,65.0,1810.0,Vacant Only,"DAVIS, COLOSSIN  & VIRHUEZ J.",94 S 7TH ST,Newark,NJ,07107,40.74499434804981,-74.19527188126797,2020-03-12,2020
268,54.0,1810.0,Vacant Only,106 S 7TH LLC.,106 S 7TH ST,Newark,NJ,07107,40.74478635120334,-74.19537599868254,2020-03-12,2020
269,9.0,1810.0,Vacant Only,"QV 77 S6 LLC,",77 S 6TH ST,Newark,NJ,07107,40.745099714285715,-74.19434919047619,2019-08-16,2019
270,45.0,1810.0,Vacant Only,"JONES, CLAUDETTE",124 S 7TH ST,Newark,NJ,07107,40.74447435593363,-74.19553217480438,2020-03-12,2020
271,14.0,1811.0,Vacant Only,CITY OF NEWARK,105 S 7TH ST,Newark,NJ,07107,40.74544262029114,-74.19527952087174,2019-08-19,2019
272,57.0,1811.0,Vacant Only,"CMRB PROPERTIES, LLC,",130 S 8TH ST,Newark,NJ,07107,40.745775433333336,-74.19588006666666,2019-10-09,2019
273,13.0,1811.0,Vacant Only,"S7 SUNSHINE LLC,",101-103 S 7TH ST,Newark,NJ,07107,40.745571815782,-74.19521473845579,2020-07-29,2020
274,19.0,1812.0,Vacant Only,"BROWN, BARBARA J.",143-145 S 8TH ST,Newark,NJ,07107,40.74564533333333,-74.19617566666668,2019-08-20,2019
275,50.0,1812.0,Vacant Only,"BAUTISTA, YAMIL",176 S 9TH ST,Newark,NJ,07107,40.74563958065504,-74.19696079952722,2020-01-10,2020
276,57.0,1813.0,Vacant Only,CITY OF NEWARK,192 S 10TH ST,Newark,NJ,07107,40.746286000000005,-74.19763874193548,2021-03-15,2021
277,12.0,1813.0,Vacant Only,"JACOBOWITZ, TOVIA",161 S 9TH ST,Newark,NJ,07107,40.74515653780044,-74.19743353691551,2019-08-20,2019
278,33.0,1814.0,Vacant Only,"NEWARK PRO NJ LLC,",241 12TH AVE,Newark,NJ,07107,40.744899,-74.19869257575758,2020-07-07,2020
279,24.0,1814.0,Vacant Only,CITY OF NEWARK,223 S 10TH ST,Newark,NJ,07107,40.74528782758621,-74.19836265517242,2021-03-15,2021
280,11.0,1815.0,Vacant Only,CITY OF NEWARK,229 S 11TH ST,Newark,NJ,07107,40.746369344827585,-74.19882955172415,2019-09-11,2019
281,49.0,1815.0,Vacant Only,"214 S 12 ST LLC,",214 S 12TH ST,Newark,NJ,07107,40.7467688,-74.19941566666667,2020-09-10,2020
282,7.0,1815.0,Vacant Only,"AROSTEGUI, MARGARITA",221-223 S 11TH ST,Newark,NJ,07107,40.74662520689655,-74.19870293103449,2021-03-18,2021
283,15.0,1815.0,Vacant Only,CITY OF NEWARK,237 S 11TH ST,Newark,NJ,07107,40.746113482758616,-74.1989561724138,2021-03-18,2021
284,18.0,1817.0,Vacant Only,"ROD PROPERTIES LLC,",255 S 19TH ST,Newark,NJ,07103,40.7478646314124,-74.20612368595927,2019-08-15,2019
285,56.0,1817.0,Vacant Only,"GOMEZ, ANEUDY J",246 S 20TH ST,Newark,NJ,07103,40.74825956713733,-74.20670256937098,2017-06-02,2017
286,56.0,1817.0,Vacant Only,"GOMEZ, ANEUDY J",246 S 20TH ST,Newark,NJ,07103,40.74825956713733,-74.20670256937098,2019-08-13,2019
288,68.0,1818.0,Vacant Only,FIRM INVESTMENT GROUP LLC,261- S 18TH ST,Newark,NJ,07103,40.74750171583258,-74.20527597259412,2019-08-08,2019
289,29.0,1818.0,Vacant Only,CITY OF NEWARK,279- S 18TH ST,Newark,NJ,07103,40.74711973058235,-74.20546436437236,2019-08-09,2019
290,59.0,1825.0,Vacant Only,"AWOYOMI, OLAYIWOLA",156 S 12TH ST,Newark,NJ,07107,40.74893188888889,-74.19831966666666,2019-09-05,2019
291,31.0,1827.0,Vacant Only,"139 SOUTH 9TH STREET,LLC",139 S 9TH ST,Newark,NJ,07107,40.74694689655173,-74.19654020689656,2019-08-21,2019
292,52.0,1827.0,Vacant Only,"69-30 GOUVERNEUR, LLC",142 S 10TH ST,Newark,NJ,07107,40.74806544827587,-74.19675951724138,2021-03-15,2021
293,62.0,1828.0,Vacant Only,DANNY'S REALTY LLC,140 S 9TH ST,Newark,NJ,07107,40.74693952173913,-74.19631143478261,2019-09-25,2019
294,39.0,1828.0,Vacant Only,"RAMIREZ-RIVAS, RAFAEL ET AL",138 S 9TH ST,Newark,NJ,07107,40.74702269565218,-74.19626991304348,2019-11-13,2019
295,15.0,1829.0,Vacant Only,"47 S 7TH LLC,",47 S 7TH ST,Newark,NJ,07107,40.74749655172414,-74.1942495862069,2019-08-19,2019
296,40.0,1829.0,Vacant Only,RICHARDSON WILLIE & VIRGINIA,106 S 8TH ST,Newark,NJ,07107,40.74672551851852,-74.19540929629629,2019-10-09,2019
297,48.0,1829.0,Vacant Only,"RYLES, WILLIE ",88-90 S 8TH ST,Newark,NJ,07107,40.747361185185184,-74.19509496296295,2019-10-09,2019
298,40.0,1849.0,Vacant Only,"TRI STATE REHABILITA,LLC",33 5TH ST,Newark,NJ,07107,40.74894289473684,-74.19149678947369,2020-07-16,2020
299,24.0,1856.0,Vacant Only,"69 SOUTH 9TH G, LLC,",69 S 9TH ST,Newark,NJ,07107,40.74944103703704,-74.19530788888889,2019-11-06,2019
300,26.0,1858.0,Vacant Only,13335 S 11TH STREET LLC,133-135 S 11TH ST,Newark,NJ,07107,40.749916080000006,-74.19707912,2021-03-18,2021
301,42.0,1858.0,Vacant Only,"IKEGNA GROUP, LLC.",126 S 12TH ST,Newark,NJ,07107,40.75011714285714,-74.19773271428572,2019-09-13,2019
302,21.0,1858.0,Vacant Only,"MB EQUITIES LLC,",123 S 11TH ST,Newark,NJ,07107,40.750283280000005,-74.19689991999999,2021-03-18,2021
303,37.0,1859.0,Vacant Only,CIG CENTRAL LLC,585-587 CENTRAL AVE,Newark,NJ,07107,40.74977185714286,-74.19876,2020-01-27,2020
304,64.0,1861.0,Vacant Only,"AFRANKO INC,",106 9TH AVE,Newark,NJ,07107,40.7520974,-74.1993422,2020-07-23,2020
305,39.0,1866.0,Vacant Only,94 SOUTH 14 STREET LLC,94 S 14TH ST,Newark,NJ,07107,40.75230688,-74.19870272,2019-07-31,2019
306,45.0,1866.0,Vacant Only,"SCOTT, KATE",82 S 14TH ST,Newark,NJ,07107,40.7525302,-74.19858980000001,2019-07-30,2019
308,22.0,1866.0,Vacant Only,"WALKER, LESHAUN C.",71 S 13TH ST,Newark,NJ,07107,40.752480999999996,-74.19780828571429,2019-09-19,2019
309,39.0,1867.0,Vacant Only,CITY OF NEWARK,77 9TH AVE,Newark,NJ,07107,40.751849,-74.197832,2020-07-23,2020
310,11.0,1867.0,Vacant Only,"SOUTH 12 CAPITAL LLC,",31 S 12TH ST,Newark,NJ,07107,40.753073125,-74.1965375,2019-09-13,2019
311,33.0,1867.0,Vacant Only,"NJR ESTATE LLC,",75 S 12TH ST,Newark,NJ,07107,40.75192225,-74.197093,2019-10-15,2019
312,48.0,1868.0,Vacant Only,"SERAFIN, SYLWESTER",60 S 12TH ST,Newark,NJ,07107,40.752215,-74.19672066666666,2019-09-13,2019
313,54.0,1868.0,Vacant Only,"11 FARLEY AVE LLC,",48 S 12TH ST,Newark,NJ,07107,40.752494,-74.196586,2019-09-13,2019
314,24.0,1875.0,Vacant Only,"BETTS, GIBRILL N ",35-37 N 6TH ST,Newark,NJ,07107,40.749669,-74.192058,2021-02-09,2021
315,28.0,1876.0,Vacant Only,"THE BOA GROUP LLC,",47 5TH ST,Newark,NJ,07107,40.74947430769231,-74.19113869230769,2020-07-16,2020
316,10.0,1878.0,Vacant Only,"92 SECOND LLC,",92-94 2ND ST,Newark,NJ,07107,40.7494425,-74.1885009375,2020-07-10,2020
318,26.0,1888.0,Vacant Only,"VALCARI EQUITIES LLC,",92-96 N 6TH ST,Newark,NJ,07107,40.75174684615385,-74.19090492307693,2021-02-16,2021
319,44.0,1888.0,Vacant Only,"GOEL, POOJA",63 N 7TH ST,Newark,NJ,07107,40.75156866666667,-74.19178066666666,2021-02-17,2021
320,43.0,1888.0,Vacant Only,"GOEL, POOJA",61 N 7TH ST,Newark,NJ,07107,40.75153903703704,-74.19179981481481,2021-02-17,2021
321,27.0,1889.0,Vacant Only,"FUCHS, JOSEPH",72-74 N 7TH ST,Newark,NJ,07107,40.75172282608696,-74.1919232173913,2020-02-04,2020
322,8.0,1890.0,Vacant Only,NRZ REO INVENTORY LLC,82 ROSEVILLE AVE,Newark,NJ,07107,40.75349918949566,-74.19180745333293,2021-03-12,2021
323,11.0,1897.0,Vacant Only,CITY OF NEWARK,9 S 12TH ST,Newark,NJ,07107,40.754255,-74.195967,2019-10-11,2019
324,20.0,1904.0,Vacant Only,US BANK NATIONAL ASSOCIATION,30 BATHGATE PL,Newark,NJ,07107,40.75466900000001,-74.19312025,2020-08-07,2020
325,25.0,1909.0,Vacant Only,"ROSALES-GARCES, KEVIN A.",443 ORANGE ST,Newark,NJ,07107,40.75262814285714,-74.18853814285714,2021-02-24,2021
326,26.0,1909.0,Vacant Only,"NJ PROPERTY 718 LLC,",445 ORANGE ST,Newark,NJ,07107,40.75265971428571,-74.1886147142857,2021-02-24,2021
327,23.0,1912.0,Vacant Only,"MONEY SOURCE INC,",209 2ND ST,Newark,NJ,07107,40.7504105,-74.1877427,2020-07-10,2020
329,72.0,1916.0,Vacant Only,JASON MURDOCK BEY EXXPRESS TRUST,225 N 6TH ST,Newark,NJ,07107,40.75620751612903,-74.18818458064516,2020-11-20,2020
330,26.0,1916.0,Vacant Only,CITY OF NEWARK,212 5TH ST,Newark,NJ,07107,40.7802422,-74.1747887,2020-07-16,2020
331,52.0,1917.0,Vacant Only,"1694-96 LEXINGTON AVE, LLC.",187 N 7TH ST,Newark,NJ,07107,40.75614568421052,-74.18928086842105,2021-02-17,2021
332,60.0,1918.0,Vacant Only,"NORTH 7 DEVELOPMENT,LLC",178 N 7TH ST,Newark,NJ,07107,40.75587922222222,-74.18965088888889,2021-02-17,2021
333,47.0,1918.0,Vacant Only,"27 NORTH 12 LLC,",27 N 12TH ST,Newark,NJ,07107,40.75685587755102,-74.19427744897959,2020-11-19,2020
334,17.0,1921.0,Vacant Only,"56-58 NORTH 11TH STREET, LLC",56-58 N 11TH ST,Newark,NJ,07107,40.7569256,-74.19342879999999,2020-11-18,2020
335,41.0,1923.0,Vacant Only,"122 N 8TH, LLC,",37 N 14TH ST,Newark,NJ,07107,40.7559648,-74.1968796,2020-11-19,2020
336,29.01,1924.0,Vacant Only,"ARCOS DEVELOPERS LLC,",104 N 13TH ST,Newark,NJ,07107,40.759229624999996,-74.19428021875,2020-02-05,2020
337,7.0,1929.0,Vacant Only,CITY OF NEWARK,270 N 7TH ST,Newark,NJ,07107,40.758910387096776,-74.18807783870969,2021-02-16,2021
338,9.0,1929.0,Vacant Only,"VELECELA,SEGUNDO G ",266 N 7TH ST,Newark,NJ,07107,40.75877651612903,-74.1881474516129,2021-02-17,2021
339,58.0,1930.0,Vacant Only,"KURUVILLA, JOHN & ELSIE ALEXANDRA",273 N 7TH ST,Newark,NJ,07107,40.758984258064515,-74.18780722580645,2021-02-16,2021
340,22.0,1930.0,Vacant Only,"VAN RIPER, LUNEAL B C/O C VAN RIPER",256 N 6TH ST,Newark,NJ,07107,40.75749383870968,-74.18775470967742,2020-11-20,2020
341,28.0,1930.0,Vacant Only,"JORDAN, ADRIENNE J",244 N 6TH ST,Newark,NJ,07107,40.757089709677416,-74.18795967741936,2020-11-20,2020
342,27.0,1930.0,Vacant Only,"RIDDLE, ANNIE ",246 N 6TH ST,Newark,NJ,07107,40.75715706451613,-74.18792551612904,2020-11-19,2020
343,66.0,1931.0,Vacant Only,"EKPESOMHEGBE, PATIENCE",279 N 6TH ST,Newark,NJ,07107,40.758264,-74.1871321724138,2021-02-09,2021
344,9.02,1936.0,Vacant Only,"TONKA HOLDINGS LLC,",328 N 7TH ST,Newark,NJ,07107,40.760969161290326,-74.18700767741936,2021-02-16,2021
345,52.0,1937.0,Vacant Only,CITY OF NEWARK,163 N 9TH ST,Newark,NJ,07107,40.76126431428571,-74.18975040000001,2021-02-22,2021
346,60.0,1937.0,Vacant Only,CITY OF NEWARK,179 N 9TH ST,Newark,NJ,07107,40.76172328571428,-74.18951200000001,2021-02-22,2021
347,3.0,1937.0,Vacant Only,"CARLSON, KARIN M.",316-318 ROSEVILLE AVE,Newark,NJ,07107,40.76162903125,-74.18816484375,2021-03-12,2021
348,4.0,1939.0,Vacant Only,458 4TH AVE NEWARK LLC,458 4TH AVE,Newark,NJ,07107,40.76176821739131,-74.18728156521739,2020-07-15,2020
349,49.0,1939.0,Vacant Only,"MONTGOMERY, ANTHONY & GERALD, MARY",163 N 12TH ST,Newark,NJ,07107,40.76215725,-74.19150652083333,2020-11-18,2020
352,75.0,1946.01,Vacant Only,HOUSING AND URBAN DEVELOPMENT,14 SPRINGDALE AVE,Newark,NJ,07017,40.7650345,-74.1911549,2019-08-27,2019
353,17.0,1949.0,Vacant Only,"GRS ZEES REALTY LLC,",412-414 5TH ST,Newark,NJ,07107,40.7802422,-74.1747887,2020-07-16,2020
354,41.0,1960.0,Vacant Only,"LOPES, CARLOS",299-301 N 13TH ST,Newark,NJ,07107,40.76648801733813,-74.19027769338363,2020-01-08,2020
355,42.0,2000.0,Vacant Only,"421 S 15TH ST LLC,",421 S 15TH ST,Newark,NJ,07103,40.740421705882355,-74.20561147058824,2019-09-23,2019
356,27.0,2055.0,Vacant Only,PEREIRA JOAQUIM ,98 MAGAZINE ST,Newark,NJ,07105,40.726214625000004,-74.147014625,2020-10-22,2020
357,31.0,2403.0,Vacant Only,"14 FOUNDRY 1 LLC,",29 FOUNDRY ST,Newark,NJ,07105,40.73370657142857,-74.13339928571429,2020-01-08,2020
358,1.01,2472.0,Vacant Only,DEUTSCHE BANK NATIONAL TRUST,28-30 FREEMAN ST,Newark,NJ,07105,40.73326881632653,-74.14542109183672,2020-02-18,2020
359,60.0,2482.0,Vacant Only,"LOURENCO, VANDERLEA",43- CORTLAND ST,Newark,NJ,07105,40.730951857142855,-74.13959642857142,2020-01-31,2020
360,7.0,2537.09,Vacant Only,"BRIGHT, WINIFRED ",250 W KINNEY ST,Newark,NJ,07103,40.73180535993149,-74.18833304028517,2020-01-07,2020
361,6.0,2539.03,Vacant Only,"GARCIA, IVANNA LEE",56 BOYD ST,Newark,NJ,07103,40.7321726,-74.1911252,2020-01-02,2020
362,48.15,2575.0,Vacant Only,NEWARK PROPERTY OWNER 2 LLC,24 DANDRIDGE DR,Newark,NJ,07108,40.725790708333335,-74.1976140625,2020-02-07,2020
363,11.0,2608.0,Vacant Only,CITY OF NEWARK,485 SPRINGFIELD AVE,Newark,NJ,07103,40.731939,-74.201676,2019-10-21,2019
364,45.0,2612.0,Vacant Only,CITY OF NEWARK,291 ROSE ST,Newark,NJ,07108,40.72946772727273,-74.19972154545455,2021-03-11,2021
365,37.0,2612.0,Vacant Only,CITY OF NEWARK,275 ROSE ST,Newark,NJ,07108,40.729285909090905,-74.19959984848485,2021-03-11,2021
366,35.0,2614.0,Vacant Only,CITY OF NEWARK,13- BRENNER ST,Newark,NJ,07108,40.73100945454546,-74.20349754545454,2020-01-03,2020
367,28.0,2614.0,Vacant Only,CITY OF NEWARK,15 BRENNER ST,Newark,NJ,07108,40.730995863636366,-74.20343563636364,2020-01-03,2020
368,5.0,2616.0,Vacant Only,"RDM CONCEPTS HOLDINGS,INC.",27 KENT ST,Newark,NJ,07108,40.73006415933745,-74.20272751203677,2020-09-09,2020
369,67.0,2618.0,Vacant Only,BRASTER STATON JR,654 S 12TH ST,Newark,NJ,07103,40.7306108,-74.20625,2019-10-10,2019
370,54.0,2618.0,Vacant Only,STATON BRASTER,680 S 12TH ST,Newark,NJ,07103,40.72976103333333,-74.20657066666666,2019-10-11,2019
371,62.0,2618.0,Vacant Only,"U.S. BANK TRUST, N.A.",662-664 S 12TH ST,Newark,NJ,07103,40.730349333333336,-74.20634866666667,2019-10-10,2019
372,19.0,2618.0,Vacant Only,"750 BERGEN ST LLC,",657 S 11TH ST,Newark,NJ,07103,40.73062848,-74.20546312,2021-03-17,2021
373,31.0,2619.0,Vacant Only,"JORDAN, JONATHAN ",61 PIERCE ST,Newark,NJ,07103,40.7293938125,-74.20808737499999,2019-07-22,2019
374,34.0,2620.0,Vacant Only,"ANIBABA, SIKIRU",40 PIERCE ST,Newark,NJ,07103,40.7304071875,-74.20725129166667,2021-03-03,2021
375,24.0,2624.0,Vacant Only,CITY OF NEWARK,49 ROSE TERR,Newark,NJ,07108,40.726709935483875,-74.20152306451612,2021-03-12,2021
376,12.0,2625.0,Vacant Only,"RFJ PROPERTIES INVESTORS 3, LLC",245-247 AVON AVE,Newark,NJ,07108,40.725906,-74.201773,2020-07-30,2020
377,45.0,2631.0,Vacant Only,CITY OF NEWARK,720 S 12TH ST,Newark,NJ,07103,40.728324111111114,-74.20711362962963,2019-10-11,2019
378,19.02,2632.0,Vacant Only,"OGUNKOLA,AKINLOLU O ",745 S 12TH ST,Newark,NJ,07103,40.727786655172416,-74.20754162068965,2019-10-11,2019
380,49.0,2634.0,Vacant Only,RESILIENT REALTY GROUP LLC,742 S 15TH ST,Newark,NJ,07103,40.72877623529412,-74.20986138235294,2020-01-09,2020
381,40.0,2634.0,Vacant Only,"734 15TH STREET LLC,",734 S 15TH ST,Newark,NJ,07103,40.729088000000004,-74.2097415,2020-01-09,2020
382,34.0,2635.0,Vacant Only,CITY OF NEWARK,776 S 16TH ST,Newark,NJ,07103,40.72847223779539,-74.21097172175458,2019-08-02,2019
383,8.0,2635.0,Vacant Only,"NEWARK 42 LLC,",733 S 15TH ST,Newark,NJ,07103,40.72917515151515,-74.20993306060606,2019-07-31,2019
384,45.0,2635.0,Vacant Only,TISHREY 772 CORP,750 S 16TH ST,Newark,NJ,07103,40.729076656444335,-74.210736790628,2019-08-02,2019
385,2.0,2636.0,Vacant Only,"ADAMS, EON A",750 S 17TH ST,Newark,NJ,07103,40.72941065472901,-74.21157296788856,2019-08-07,2019
386,52.0,2636.0,Vacant Only,"VENTURA, SAMMY",752 S 17TH ST,Newark,NJ,07103,40.72935812595643,-74.2115924652126,2019-08-07,2019
387,29.0,2637.0,Vacant Only,NORTH 5TH HOLDING LLC,789 S 17TH ST,Newark,NJ,07103,40.728544992323364,-74.21211930073514,2019-08-07,2019
389,11.0,2641.0,Vacant Only,"SURGEON, KISAN ",59-61 MONTGOMERY AVE,Newark,NJ,07108,40.72788103225807,-74.21546874193548,2020-10-30,2020
390,10.0,2641.0,Vacant Only,CITY OF NEWARK,57 MONTGOMERY AVE,Newark,NJ,07108,40.7278905483871,-74.21546061290323,2020-10-30,2020
391,17.0,2642.0,Vacant Only,DEUTSCHE BANK NATIONAL TR,837 S 19TH ST,Newark,NJ,07108,40.72724723636364,-74.21456412727274,2019-10-15,2019
392,28.0,2642.0,Vacant Only,"859 SOUTH 19 LLC,",859 S 19TH ST,Newark,NJ,07108,40.726579436363636,-74.21482392727273,2019-08-14,2019
393,46.0,2643.0,Vacant Only,CITY OF NEWARK,832 S 19TH ST,Newark,NJ,07108,40.727411,-74.21427413207547,2019-08-14,2019
394,5.0,2643.0,Vacant Only,"FOLGER, SIMCHA",480 AVON AVE,Newark,NJ,07108,40.72825385714286,-74.21353628571428,2020-07-30,2020
395,45.0,2644.0,Vacant Only,"WARA HOLDINGS LLC,",832 S 18TH ST,Newark,NJ,07108,40.72709407692308,-74.21343138461539,2019-08-12,2019
396,4.0,2644.0,Vacant Only,CITY OF NEWARK,466 AVON AVE,Newark,NJ,07108,40.72808114285714,-74.21272071428571,2020-07-30,2020
398,16.0,2644.0,Vacant Only,"821 S 17 LLC,",821 S 17TH ST,Newark,NJ,07108,40.72727441666667,-74.21260625,2021-01-29,2021
399,5.0,2645.0,Vacant Only,METRO CITY INVESTMENT PROP LLC,432 AVON AVE,Newark,NJ,07108,40.727678142857144,-74.21084657142858,2020-07-30,2020
400,52.0,2645.0,Vacant Only,"814 SOUTH 17 LLC,",814 S 17TH ST,Newark,NJ,07108,40.72743279166667,-74.212318375,2019-08-08,2019
402,38.0,2646.0,Vacant Only,"16 NJ LLC,",838 S 16TH ST,Newark,NJ,07108,40.72630604545454,-74.21179745454546,2019-08-02,2019
403,37.0,2647.0,Vacant Only,CITY OF NEWARK,816 S 15TH ST,Newark,NJ,07108,40.7260182,-74.21091508,2019-08-01,2019
404,54.0,2647.0,Vacant Only,"FIRST REHAB LENDING, LLC",782 S 15TH ST,Newark,NJ,07108,40.7271334,-74.21049076,2019-08-01,2019
405,53.0,2647.0,Vacant Only,"FEKETE, JOEL",784 S 15TH ST,Newark,NJ,07108,40.7270678,-74.21051572,2019-08-01,2019
406,25.0,2647.0,Vacant Only,CAROLE L DJMAT-DUBOIS,817 S 14TH ST,Newark,NJ,07108,40.72616814814815,-74.21011444444444,2019-09-20,2019
407,28.0,2647.0,Vacant Only,"MIDWEST FUNDING LLC,",823 S 14TH ST,Newark,NJ,07108,40.72598637037037,-74.21018411111112,2019-09-20,2019
408,35.0,2649.0,Vacant Only,"789 SOUTH 12 LLC,",789 S 12TH ST,Newark,NJ,07108,40.72609185,-74.20818125,2019-10-11,2019
409,16.0,2649.0,Vacant Only,"796 SOUTH 13TH STREET, LLC",796 S 13TH ST,Newark,NJ,07108,40.72625807692308,-74.20886623076923,2019-09-18,2019
410,19.0,2649.0,Vacant Only,"JACKSON, ERNESTINE",804 S 13TH ST,Newark,NJ,07108,40.72600638461539,-74.20896115384616,2020-02-05,2020
411,2.0,2650.0,Vacant Only,"FDF 2 LLC,",374 AVON AVE,Newark,NJ,07108,40.72695485714286,-74.20748257142857,2020-07-30,2020
412,14.0,2652.0,Vacant Only,CITY OF NEWARK,37 SHANLEY AVE,Newark,NJ,07108,40.725814,-74.20507766666667,2019-10-02,2019
413,10.0,2652.0,Vacant Only,ELMONT INVESTMENTS LLC,27-29 SHANLEY AVE,Newark,NJ,07108,40.726150249999996,-74.204937875,2019-11-13,2019
414,11.0,2655.0,Vacant Only,"CV FARLEY LLC,",11 FARLEY AVE,Newark,NJ,07108,40.7253625,-74.20193654166667,2020-07-01,2020
415,21.0,2656.0,Vacant Only,JERSEY MOUNTAIN 7 LLC,31 SEYMOUR AVE,Newark,NJ,07108,40.7244715,-74.201205,2019-10-01,2019
416,13.0,2656.0,Vacant Only,U.S. BANK NATIONAL ASSOCIATION,15 SEYMOUR AVE,Newark,NJ,07108,40.7250115,-74.200981,2021-01-27,2021
417,16.0,2659.0,Vacant Only,"FDF 4, LLC.",583 BERGEN ST,Newark,NJ,07108,40.72420796296296,-74.19915044444444,2020-08-06,2020
418,29.0,2662.0,Vacant Only,187 JELLIFF REALTY LLC,187 JELLIFF AVE,Newark,NJ,07108,40.72294733333334,-74.1964985,2020-01-08,2020
419,33.0,2664.0,Vacant Only,"PARKER,WILLIAM C.II PAUL,TANYA-M",134 BADGER AVE,Newark,NJ,07108,40.72258026865671,-74.19537010447762,2020-08-07,2020
420,53.0,2666.0,Vacant Only,ALLEGHENY EAST CONFERENCE ASSOC,41 HILLSIDE AVE,Newark,NJ,07108,40.722346684471084,-74.19208660142114,2020-08-13,2020
421,12.0,2670.0,Vacant Only,"U.S. BANK TRUST N.A.,",23 MILFORD AVE,Newark,NJ,07108,40.72192395918367,-74.18968563265305,2020-10-29,2020
422,13.0,2675.0,Vacant Only,"MCPHOY, JACQUELINE",59 HILLSIDE AVE,Newark,NJ,07108,40.72153442307692,-74.19242146153846,2020-08-13,2020
423,11.0,2679.0,Vacant Only,CITY OF NEWARK,105-107 W ALPINE ST,Newark,NJ,07108,40.72046804081632,-74.19552514285714,2020-01-07,2020
424,50.0,2685.0,Vacant Only,"WHITFIELD, DAVID ",618-620 BERGEN ST,Newark,NJ,07108,40.72296092,-74.19944736,2020-08-06,2020
425,40.0,2688.0,Vacant Only,GORDON EDWARD ,702-704 BERGEN ST,Newark,NJ,07108,40.7199915,-74.20068173076923,2020-01-02,2020
426,18.0,2689.0,Vacant Only,CITY OF NEWARK,223 PESHINE AVE,Newark,NJ,07112,40.7147121097561,-74.20090131707316,2021-03-03,2021
427,9.0,2692.0,Vacant Only,CITY OF NEWARK,113 RIDGEWOOD AVE,Newark,NJ,07108,40.719721,-74.19575228571429,2021-03-10,2021
428,24.0,2692.0,Vacant Only,HOUSING AUTHORITY,143 RIDGEWOOD AVE,Newark,NJ,07108,40.718723499999996,-74.19616907142857,2021-03-10,2021
429,31.0,2694.0,Vacant Only,461 IRVINE TURNER LLC,461 IRVINE TURNER BLVD,Newark,NJ,07108,40.718076,-74.194931,2021-01-25,2021
430,53.0,2699.0,Vacant Only,"MT459 LLC,",154 JOHNSON AVE,Newark,NJ,07108,40.716294727272725,-74.19329978409091,2020-08-20,2020
431,44.0,2700.0,Vacant Only,"94 HILLSIDE LLC,",194 HILLSIDE AVE,Newark,NJ,07108,40.71674372727273,-74.19414142424242,2020-08-13,2020
432,36.0,2700.0,Vacant Only,"FOLGER, PENINA",210 HILLSIDE AVE,Newark,NJ,07112,40.71047993939394,-74.1986075959596,2020-08-13,2020
433,7.0,2776.0,Vacant Only,LEE WALTER,146 ELIZABETH AVE,Newark,NJ,07108,40.718055625,-74.190079125,2020-02-10,2020
434,22.0,2786.0,Vacant Only,"168 SHERMAN, LLC,",168 SHERMAN AVE,Newark,NJ,07114,40.71926414285714,-74.18728914285714,2019-10-16,2019
435,32.0,2790.0,Vacant Only,"ARENA, RITA LEILA P.",96 VANDERPOOL ST,Newark,NJ,07114,40.71923206666667,-74.18417073333333,2021-01-27,2021
436,22.0,2791.0,Vacant Only,SVS ,152 SHERMAN AVE,Newark,NJ,07114,40.71991657142857,-74.18691185714286,2019-08-23,2019
437,23.0,2791.0,Vacant Only,"PIZZI, GUSTAVO",150 SHERMAN AVE,Newark,NJ,07114,40.71997571428572,-74.18687757142857,2019-08-23,2019
438,21.0,2792.0,Vacant Only,CITY OF NEWARK,149 SHERMAN AVE,Newark,NJ,07114,40.72004171428571,-74.18707557142857,2019-10-16,2019
439,25.0,2792.0,Vacant Only,"SMITH, SHAYNA A",157 SHERMAN AVE,Newark,NJ,07114,40.71980514285714,-74.1872127142857,2019-08-23,2019
440,9.0,2797.0,Vacant Only,"BROAD PROSPECT, LLC.",124 MILLER ST,Newark,NJ,07114,40.71953499999999,-74.18220725,2020-10-29,2020
441,11.0,2801.0,Vacant Only,"22 ELIZABETH AVE LLC,",22-24 ELIZABETH AVE,Newark,NJ,07108,40.722600633834276,-74.18759685432411,2020-06-18,2020
442,28.0,2802.0,Vacant Only,"ABELENDA, VICTOR ",18 WRIGHT ST,Newark,NJ,07114,40.722687,-74.1865562,2019-08-27,2019
443,16.0,2802.0,Vacant Only,"SAVION GLOVER PRODUC,",131 BRUNSWICK ST,Newark,NJ,07114,40.722975142857145,-74.1853107142857,2020-07-21,2020
444,58.0,2803.0,Vacant Only,CITY OF NEWARK,120 BRUNSWICK ST,Newark,NJ,07114,40.72304972727273,-74.1846633030303,2020-01-24,2020
446,26.0,2806.0,Vacant Only,"ADAMS, CORNELL L.",124 WRIGHT ST,Newark,NJ,07114,40.72024131578947,-74.18202136842105,2020-01-17,2020
447,11.0,2826.0,Vacant Only,"COMMUNITY ASSET PRES,",84 CLINTON AVE,Newark,NJ,07114,40.72570022222222,-74.18098644444444,2020-01-30,2020
448,48.0,2828.0,Vacant Only,ANDERSON ROBERT L. & MILDRED L.,24 SUMMIT ST,Newark,NJ,07103,40.74530522518522,-74.17584521139204,2019-10-25,2019
449,57.0,2828.0,Vacant Only,"10 SUMMIT STREET LLC,",10 SUMMIT ST,Newark,NJ,07103,40.745396718249175,-74.17577698596074,2019-10-25,2019
450,61.0,2828.0,Vacant Only,"SCOTT, SHAREYNA N",8 SUMMIT ST,Newark,NJ,07103,40.74540978868688,-74.17576723947056,2019-10-25,2019
451,11.0,2848.0,Vacant Only,CITY OF  NEWARK,13 HECKER ST,Newark,NJ,07103,40.74984525303154,-74.18359302405878,2020-03-10,2020
452,23.0,2848.0,Vacant Only,CITY OF NEWARK,39 HECKER ST,Newark,NJ,07103,40.74942546793319,-74.18388557618614,2020-03-10,2020
453,12.0,2848.0,Vacant Only,CITY OF NEWARK,15 HECKER ST,Newark,NJ,07103,40.74981296187013,-74.18361552806857,2020-03-10,2020
454,35.0,2853.0,Vacant Only,"DICKERSON DEVELOPMEN,LLC",250-252 ORANGE ST,Newark,NJ,07103,40.748265875,-74.1797865,2021-02-24,2021
456,48.0,3000.0,Vacant Only,CITY OF NEWARK,56 SEYMOUR AVE,Newark,NJ,07108,40.72343965217391,-74.20140708695652,2019-10-02,2019
457,41.0,3000.0,Vacant Only,MINARET INVESTMENT LLC,68-70 SEYMOUR AVE,Newark,NJ,07108,40.723018608695654,-74.20158134782608,2019-02-14,2019
458,37.0,3000.0,Vacant Only,20 MAPLE PROPERTY LLC,78-80 SEYMOUR AVE,Newark,NJ,07108,40.722667739130436,-74.20172656521738,2019-10-02,2019
459,41.0,3000.0,Vacant Only,MINARET INVESTMENT LLC,68-70 SEYMOUR AVE,Newark,NJ,07108,40.723018608695654,-74.20158134782608,2019-10-01,2019
460,48.0,3002.0,Vacant Only,78 TREACY HOLDINGS LLC,78 TREACY AVE,Newark,NJ,07108,40.723938857142855,-74.2034071904762,2019-10-28,2019
461,43.0,3002.0,Vacant Only,"KLEIN, HERSH",86-88 TREACY AVE,Newark,NJ,07108,40.723836,-74.20344877777778,2019-10-28,2019
547,54.0,3051.0,Vacant Only,"62 WILLOUGHBY LLC,",62 WILLOUGHBY ST,Newark,NJ,07112,40.713633,-74.216195,2020-01-16,2020
462,44.0,3004.0,Vacant Only,"GOLDEN HOLDINGS LLC,",84-86 SHANLEY AVE,Newark,NJ,07108,40.7243,-74.20548099999999,2019-10-02,2019
463,13.0,3005.0,Vacant Only,CITY OF NEWARK,95-97 SHANLEY AVE,Newark,NJ,07108,40.7241998125,-74.205749,2019-10-02,2019
464,30.0,3006.0,Vacant Only,CLINTON HEIGHTS ASSOC. LLC,649-659 CLINTON AVE,Newark,NJ,07108,40.723070067894135,-74.20802078178934,2020-01-30,2020
465,96.0,3007.0,Vacant Only,COMMUNITY ASSET PRESERVATION CORP,836 S 12TH ST,Newark,NJ,07108,40.72448054545455,-74.20856365909091,2019-10-11,2019
466,62.0,3008.0,Vacant Only,"MYF HOLDINGS, LLC.",853-855 S 12TH ST,Newark,NJ,07108,40.72413635555556,-74.20891808888888,2019-10-11,2019
467,28.0,3008.0,Vacant Only,"NISBETT, TIBISAY",840-842 S 13TH ST,Newark,NJ,07108,40.72474234210526,-74.2094387631579,2019-09-19,2019
468,19.0,3009.0,Vacant Only,ASCENSION CAPITAL PARTNERS 1 LLC,864 S 14TH ST,Newark,NJ,07108,40.72502353658536,-74.21032837804879,2019-09-19,2019
469,31.0,3009.0,Vacant Only,"TANWIR, ANJUM",840 S 14TH ST,Newark,NJ,07108,40.72537270731707,-74.21019447560975,2019-09-20,2019
472,40.0,3010.0,Vacant Only,"CARRANZA, CARLOS E",889 S 14TH ST,Newark,NJ,07108,40.72470208433735,-74.21067667469879,2019-07-31,2019
473,20.0,3010.0,Vacant Only,NATIONS LENDING CORPORATION,849 S 14TH ST,Newark,NJ,07108,40.725277024096386,-74.21045619277109,2020-07-08,2020
474,68.0,3011.0,Vacant Only,CITY OF NEWARK,886 S 16TH ST,Newark,NJ,07108,40.72513894736842,-74.21223831578948,2019-08-02,2019
475,76.0,3011.0,Vacant Only,"ISABELLA RENOVATIONS, LLC",870 S 16TH ST,Newark,NJ,07108,40.72542136842105,-74.21213178947369,2019-08-02,2019
477,75.0,3011.0,Vacant Only,"ANDRUS,SHIQUANA Y HARRISON,KAYREN G",872 S 16TH ST,Newark,NJ,07108,40.72538606578947,-74.21214510526316,2020-07-08,2020
479,38.0,3012.0,Vacant Only,"LICHTENSTADTER, AVRUM DOVID",905 S 16TH ST,Newark,NJ,07108,40.72486622368421,-74.21256615789474,2019-08-01,2019
481,9.0,3012.0,Vacant Only,"851B S 16 AVE LLC,",851- S 16TH ST,Newark,NJ,07108,40.725819394736845,-74.21220663157895,2020-01-09,2020
482,15.0,3013.0,Vacant Only,GLOVER LAURENCE,865 S 17TH ST,Newark,NJ,07108,40.725814418918915,-74.21317372972973,2019-08-08,2019
484,43.0,3013.0,Vacant Only,CITY OF NEWARK,921 S 17TH ST,Newark,NJ,07108,40.72475609459459,-74.21358464864865,2019-08-08,2019
485,14.0,3013.0,Vacant Only,"MONTALVO, ALFREDO",863 S 17TH ST,Newark,NJ,07108,40.72585221621622,-74.21315905405406,2019-08-08,2019
486,67.0,3013.0,Vacant Only,CITY OF NEWARK,918 S 18TH ST,Newark,NJ,07108,40.72438928125,-74.2146870625,2019-08-12,2019
487,38.0,3014.0,Vacant Only,MOORE WILLIE M. ,890 S 19TH ST,Newark,NJ,07108,40.725584,-74.21498490566039,2019-08-14,2019
488,16.0,3014.0,Vacant Only,CULVER JAMES & THELMA,871 S 18TH ST,Newark,NJ,07108,40.725803500000005,-74.21414463636364,2020-09-16,2020
489,3.0,3015.0,Vacant Only,CITY OF NEWARK,892 S 20TH ST,Newark,NJ,07108,40.7256925625,-74.21591575,2019-09-25,2019
491,3.0,3015.01,Vacant Only,CITY OF NEWARK,899 S 20TH ST,Newark,NJ,07108,40.725359096153845,-74.21627069230769,2019-08-15,2019
493,12.0,3017.0,Vacant Only,CITY OF NEWARK,923 S 18TH ST,Newark,NJ,07108,40.72432870833333,-74.21471174999999,2019-08-12,2019
495,12.0,3018.0,Vacant Only,CITY OF NEWARK,933 S 19TH ST,Newark,NJ,07108,40.72448423255814,-74.2156388372093,2019-08-14,2019
496,44.0,3018.0,Vacant Only,912 S 20TH ST LLC,912 S 20TH ST,Newark,NJ,07108,40.724906,-74.21622,2019-10-02,2019
497,12.0,3019.0,Vacant Only,"116 SEYMOUR PROPERTIES, LLC",116 SEYMOUR AVE,Newark,NJ,07108,40.72120785714286,-74.20229257142857,2013-08-14,2013
498,42.0,3020.0,Vacant Only,TOOL TIME GENERAL CONTRACTING LLC,176-178 SEYMOUR AVE,Newark,NJ,07108,40.719107293777235,-74.20302531270644,2019-10-01,2019
499,39.0,3020.0,Vacant Only,CITY OF NEWARK,170 SEYMOUR AVE,Newark,NJ,07108,40.71930552918482,-74.2029575418043,2019-09-30,2019
